{"source":"starter; bővíthető OSM/OVF exporttal","waters":[{"name":"Duna","type":"folyó","county":"Pest","settlement":"Budapest","lat":47.4979,"lon":19.0402},{"name":"Tisza","type":"folyó","county":"Jász-Nagykun-Szolnok","settlement":"Szolnok","lat":47.174,"lon":20.176},{"name":"Balaton","type":"tó","county":"Veszprém","settlement":"Balatonfüred","lat":46.95,"lon":17.88},{"name":"Velencei-tó","type":"tó","county":"Fejér","settlement":"Gárdony","lat":47.205,"lon":18.626},{"name":"Tisza-tó","type":"tó/tározó","county":"Heves","settlement":"Tiszanána","lat":47.617,"lon":20.667},{"name":"Ráckevei-Duna","type":"holtág/csatorna","county":"Pest","settlement":"Ráckeve","lat":47.16,"lon":18.94},{"name":"Öreg-tó","type":"tó","county":"Komárom-Esztergom","settlement":"Tata","lat":47.648,"lon":18.323},{"name":"Holt-Tisza","type":"holtág","county":"Jász-Nagykun-Szolnok","settlement":"Tiszafüred","lat":47.62,"lon":20.74},{"name":"Dráva","type":"folyó","county":"Baranya","settlement":"Drávaszabolcs","lat":45.805,"lon":18.203},{"name":"Körös","type":"folyó","county":"Békés","settlement":"Gyula","lat":46.65,"lon":21.28},{"name":"Maros","type":"folyó","county":"Csongrád-Csanád","settlement":"Szeged","lat":46.25,"lon":20.15},{"name":"Zagyva","type":"folyó","county":"Jász-Nagykun-Szolnok","settlement":"Szolnok","lat":47.18,"lon":20.18},{"name":"Sió-csatorna","type":"csatorna","county":"Somogy","settlement":"Siófok","lat":46.91,"lon":18.04},{"name":"Kis-Balaton","type":"tó/vizes élőhely","county":"Zala","settlement":"Zalavár","lat":46.65,"lon":17.17},{"name":"Hernád","type":"folyó","county":"Borsod-Abaúj-Zemplén","settlement":"Hernádkak","lat":48.08,"lon":20.97}]}