{
  "waters": [
    {
      "name": "Duna",
      "type": "folyó",
      "county": "Budapest",
      "settlement": "Budapest",
      "lat": 47.4979,
      "lon": 19.0402
    },
    {
      "name": "Tisza",
      "type": "folyó",
      "county": "Jász-Nagykun-Szolnok",
      "settlement": "Szolnok",
      "lat": 47.1747,
      "lon": 20.1763
    },
    {
      "name": "Dráva",
      "type": "folyó",
      "county": "Baranya",
      "settlement": "Mohács",
      "lat": 45.9931,
      "lon": 18.6831
    },
    {
      "name": "Rába",
      "type": "folyó",
      "county": "Vas",
      "settlement": "Körmend",
      "lat": 47.01,
      "lon": 16.605
    },
    {
      "name": "Ipoly",
      "type": "folyó",
      "county": "Nógrád",
      "settlement": "Balassagyarmat",
      "lat": 48.0833,
      "lon": 19.3
    },
    {
      "name": "Körös",
      "type": "folyó",
      "county": "Békés",
      "settlement": "Gyula",
      "lat": 46.65,
      "lon": 21.2833
    },
    {
      "name": "Maros",
      "type": "folyó",
      "county": "Csongrád-Csanád",
      "settlement": "Szeged",
      "lat": 46.253,
      "lon": 20.1414
    },
    {
      "name": "Sajó",
      "type": "folyó",
      "county": "Borsod-Abaúj-Zemplén",
      "settlement": "Miskolc",
      "lat": 48.1035,
      "lon": 20.7784
    },
    {
      "name": "Hernád",
      "type": "folyó",
      "county": "Borsod-Abaúj-Zemplén",
      "settlement": "Miskolc",
      "lat": 48.1035,
      "lon": 20.7784
    },
    {
      "name": "Zagyva",
      "type": "folyó",
      "county": "Jász-Nagykun-Szolnok",
      "settlement": "Szolnok",
      "lat": 47.1747,
      "lon": 20.1763
    },
    {
      "name": "Balaton",
      "type": "tó",
      "county": "Somogy",
      "settlement": "Siófok",
      "lat": 46.9091,
      "lon": 18.0746
    },
    {
      "name": "Velencei-tó",
      "type": "tó",
      "county": "Fejér",
      "settlement": "Sukoró",
      "lat": 47.2412,
      "lon": 18.6005
    },
    {
      "name": "Tisza-tó",
      "type": "tó/tározó",
      "county": "Jász-Nagykun-Szolnok",
      "settlement": "Tiszafüred",
      "lat": 47.6167,
      "lon": 20.7667
    },
    {
      "name": "Fertő tó",
      "type": "tó",
      "county": "Győr-Moson-Sopron",
      "settlement": "Sopron",
      "lat": 47.6817,
      "lon": 16.5845
    },
    {
      "name": "Öreg-tó",
      "type": "tó",
      "county": "Komárom-Esztergom",
      "settlement": "Tata",
      "lat": 47.6523,
      "lon": 18.3189
    },
    {
      "name": "Ráckevei Duna-ág",
      "type": "folyóág",
      "county": "Pest",
      "settlement": "Ráckeve",
      "lat": 47.1608,
      "lon": 18.9448
    },
    {
      "name": "Holt-Tisza",
      "type": "holtág",
      "county": "Jász-Nagykun-Szolnok",
      "settlement": "Szolnok",
      "lat": 47.1747,
      "lon": 20.1763
    },
    {
      "name": "Keleti-főcsatorna",
      "type": "csatorna",
      "county": "Hajdú-Bihar",
      "settlement": "Hajdúszoboszló",
      "lat": 47.4439,
      "lon": 21.391
    },
    {
      "name": "Sió-csatorna",
      "type": "csatorna",
      "county": "Tolna",
      "settlement": "Szekszárd",
      "lat": 46.3501,
      "lon": 18.703
    },
    {
      "name": "Zala folyó",
      "type": "folyó",
      "county": "Zala",
      "settlement": "Zalaegerszeg",
      "lat": 46.8417,
      "lon": 16.8416
    },
    {
      "name": "Bódva",
      "type": "folyó",
      "county": "Borsod-Abaúj-Zemplén",
      "settlement": "Miskolc",
      "lat": 48.1035,
      "lon": 20.7784
    },
    {
      "name": "Túr",
      "type": "folyó",
      "county": "Szabolcs-Szatmár-Bereg",
      "settlement": "Vásárosnamény",
      "lat": 48.1333,
      "lon": 22.3167
    },
    {
      "name": "Szamos",
      "type": "folyó",
      "county": "Szabolcs-Szatmár-Bereg",
      "settlement": "Vásárosnamény",
      "lat": 48.1333,
      "lon": 22.3167
    }
  ],
  "note": "Induló bővített vízlista. Teljes OSM/OVF vízrajz később data/waters.min.json cserével tölthető be."
}